{
  "contactList" : [ {
    "type" : "PersonContact",
    "name" : "Frank Lucas",
    "phoneNumber" : "4763243",
    "photographs" : [ {
      "photoID" : 1,
      "fileName" : "profilePhoto.jpg",
      "dateOfPhoto" : "01-10-2020",
      "description" : "Photo for profile"
    } ],
    "location" : {
      "locationID" : 0,
      "street" : "Recker Rd",
      "city" : "Gilbert",
      "state" : "Arizona"
    },
    "dateOfBirth" : "10-1-1991",
    "description" : "This is my test persons description"
  }, {
    "type" : "PersonContact",
    "name" : "Bill",
    "phoneNumber" : "2021122323",
    "photographs" : [ {
      "photoID" : 1,
      "fileName" : "file.com",
      "dateOfPhoto" : "10-10-2020",
      "description" : "FunnyPic"
    } ],
    "location" : {
      "locationID" : 1,
      "street" : "Otter",
      "city" : "Concord",
      "state" : "NH"
    },
    "dateOfBirth" : "10-09-1980",
    "description" : "Funny"
  }, {
    "type" : "PersonContact",
    "name" : "Frank Lucas",
    "phoneNumber" : "4763243",
    "photographs" : [ {
      "photoID" : 1,
      "fileName" : "profilePhoto.jpg",
      "dateOfPhoto" : "01-10-2020",
      "description" : "Photo for profile"
    } ],
    "location" : {
      "locationID" : 0,
      "street" : "Recker Rd",
      "city" : "Gilbert",
      "state" : "Arizona"
    },
    "dateOfBirth" : "10-1-1991",
    "description" : "This is my test persons description"
  }, {
    "type" : "PersonContact",
    "name" : "John",
    "phoneNumber" : "310-210-2222",
    "photographs" : [ {
      "photoID" : 1,
      "fileName" : "file.com",
      "dateOfPhoto" : "10-20-2011",
      "description" : "yes"
    } ],
    "location" : {
      "locationID" : 1,
      "street" : "Otter",
      "city" : "Chicago",
      "state" : "Arizona"
    },
    "dateOfBirth" : "10-11-1983",
    "description" : "funny"
  }, {
    "type" : "PersonContact",
    "name" : "Frank Lucas",
    "phoneNumber" : "4763243",
    "photographs" : [ {
      "photoID" : 1,
      "fileName" : "profilePhoto.jpg",
      "dateOfPhoto" : "01-10-2020",
      "description" : "Photo for profile"
    } ],
    "location" : {
      "locationID" : 0,
      "street" : "Recker Rd",
      "city" : "Gilbert",
      "state" : "Arizona"
    },
    "dateOfBirth" : "10-1-1991",
    "description" : "This is my test persons description"
  }, {
    "type" : "PersonContact",
    "name" : "Lewis",
    "phoneNumber" : "702-200-1029",
    "photographs" : [ {
      "photoID" : 1,
      "fileName" : "file.com",
      "dateOfPhoto" : "10-10-2017",
      "description" : "funny"
    } ],
    "location" : {
      "locationID" : 1,
      "street" : "Hen",
      "city" : "Phoenix",
      "state" : "AZ"
    },
    "dateOfBirth" : "10-10-1977",
    "description" : "funny"
  }, {
    "type" : "PersonContact",
    "name" : "Frank Lucas",
    "phoneNumber" : "4763243",
    "photographs" : [ {
      "photoID" : 1,
      "fileName" : "profilePhoto.jpg",
      "dateOfPhoto" : "01-10-2020",
      "description" : "Photo for profile"
    } ],
    "location" : {
      "locationID" : 0,
      "street" : "Recker Rd",
      "city" : "Gilbert",
      "state" : "Arizona"
    },
    "dateOfBirth" : "10-1-1991",
    "description" : "This is my test persons description"
  }, {
    "type" : "PersonContact",
    "name" : "Frank Lucas",
    "phoneNumber" : "4763243",
    "photographs" : [ {
      "photoID" : 1,
      "fileName" : "profilePhoto.jpg",
      "dateOfPhoto" : "01-10-2020",
      "description" : "Photo for profile"
    } ],
    "location" : {
      "locationID" : 0,
      "street" : "Recker Rd",
      "city" : "Gilbert",
      "state" : "Arizona"
    },
    "dateOfBirth" : "10-1-1991",
    "description" : "This is my test persons description"
  }, {
    "type" : "PersonContact",
    "name" : "Luke",
    "phoneNumber" : "210-210-2222",
    "photographs" : [ {
      "photoID" : 1,
      "fileName" : "file.com",
      "dateOfPhoto" : "10-20-2018",
      "description" : "Funny"
    } ],
    "location" : {
      "locationID" : 1,
      "street" : "Baker",
      "city" : "Phoenix",
      "state" : "Arizona"
    },
    "dateOfBirth" : "10-12-1982",
    "description" : "Funny"
  } ]
}